% program   : RTKLIB ver.2.4.2
% inp file  : google_normal_BDS.obs
% inp file  : brdm2490.19p
% obs start : 2019/09/06 10:08:41.4 GPST (week2069 468521.4s)
% obs end   : 2019/09/06 10:28:40.4 GPST (week2069 469720.4s)
% pos mode  : single
% elev mask : 15.0 deg
% ionos opt : broadcast
% tropo opt : saastamoinen
% ephemeris : broadcast
% navi sys  :
%
% (lat/lon/height=WGS84/ellipsoidal,Q=1:fix,2:float,3:sbas,4:dgps,5:single,6:ppp,ns=# of satellites)
%  GPST                  latitude(deg) longitude(deg)  height(m)   Q  ns   sdn(m)   sde(m)   sdu(m)  sdne(m)  sdeu(m)  sdun(m) age(s)  ratio
2019/09/06 10:08:41.440   39.839180615  116.555561804  3351.3989   5   7   4.2245   2.8643   7.7015  -0.8583   3.2351  -3.0734   0.00    0.0
2019/09/06 10:08:44.440   39.854377836  116.517764398 -6635.5072   5   8   3.2944   1.6949   3.9527   0.9754   0.7089  -1.3006   0.00    0.0
2019/09/06 10:08:47.440   39.854300506  116.517762793 -6649.3551   5   8   3.2942   1.6948   3.9522   0.9751   0.7088  -1.3042   0.00    0.0
2019/09/06 10:08:50.440   39.854075652  116.517756661 -6642.5876   5   8   3.2939   1.6947   3.9518   0.9748   0.7087  -1.3079   0.00    0.0
2019/09/06 10:08:53.440   39.853328031  116.517695501 -6641.5105   5   8   3.2936   1.6946   3.9513   0.9745   0.7086  -1.3115   0.00    0.0
2019/09/06 10:08:56.440   39.852702884  116.517593591 -6661.1043   5   8   3.2934   1.6945   3.9509   0.9742   0.7085  -1.3151   0.00    0.0
2019/09/06 10:08:59.440   39.852238740  116.517425551 -6671.7996   5   8   3.2931   1.6944   3.9505   0.9738   0.7083  -1.3187   0.00    0.0
2019/09/06 10:09:02.440   39.851663396  116.517503173 -6620.5930   5   8   3.2928   1.6943   3.9500   0.9735   0.7082  -1.3222   0.00    0.0
2019/09/06 10:09:06.440   39.851710764  116.517522388 -6648.5251   5   8   3.2925   1.6942   3.9495   0.9731   0.7080  -1.3270   0.00    0.0
2019/09/06 10:09:09.440   39.851567494  116.516405957 -6493.6450   5   8   3.2922   1.6941   3.9490   0.9728   0.7081  -1.3306   0.00    0.0
2019/09/06 10:09:12.440   39.851462638  116.516395848 -6489.0310   5   8   3.2920   1.6940   3.9486   0.9724   0.7079  -1.3341   0.00    0.0
2019/09/06 10:09:15.440   39.851228297  116.517059480 -6598.9586   5   8   3.2918   1.6939   3.9482   0.9722   0.7077  -1.3377   0.00    0.0
2019/09/06 10:09:18.440   39.851144305  116.517104923 -6601.0172   5   8   3.2915   1.6938   3.9478   0.9719   0.7076  -1.3412   0.00    0.0
2019/09/06 10:09:21.440   39.851140861  116.517382096 -6643.7164   5   8   3.2913   1.6937   3.9473   0.9716   0.7074  -1.3448   0.00    0.0
2019/09/06 10:09:24.440   39.851031506  116.517411087 -6632.4388   5   8   3.2910   1.6936   3.9469   0.9713   0.7073  -1.3483   0.00    0.0
2019/09/06 10:09:27.440   39.850909563  116.517349557 -6634.8312   5   8   3.2908   1.6935   3.9465   0.9710   0.7072  -1.3518   0.00    0.0
2019/09/06 10:09:30.440   39.850653622  116.517146436 -6666.3182   5   8   3.2905   1.6935   3.9461   0.9706   0.7070  -1.3552   0.00    0.0
2019/09/06 10:09:33.440   39.850570735  116.517143893 -6671.1718   5   8   3.2903   1.6934   3.9457   0.9703   0.7069  -1.3587   0.00    0.0
2019/09/06 10:09:36.440   39.850327087  116.517163806 -6648.8711   5   8   3.2901   1.6933   3.9452   0.9700   0.7068  -1.3622   0.00    0.0
2019/09/06 10:09:39.440   39.850324573  116.517043494 -6673.7212   5   8   3.2898   1.6932   3.9448   0.9697   0.7067  -1.3657   0.00    0.0
2019/09/06 10:09:43.440   39.850365049  116.517031800 -6666.9966   5   8   3.2895   1.6931   3.9443   0.9693   0.7065  -1.3703   0.00    0.0
2019/09/06 10:09:46.440   39.849955979  116.517003271 -6663.9819   5   8   3.2893   1.6930   3.9439   0.9690   0.7063  -1.3737   0.00    0.0
2019/09/06 10:09:49.440   39.850005970  116.516932900 -6679.0217   5   8   3.2890   1.6929   3.9434   0.9687   0.7062  -1.3771   0.00    0.0
2019/09/06 10:09:52.440   39.849908129  116.516849884 -6686.3305   5   8   3.2888   1.6928   3.9430   0.9684   0.7061  -1.3805   0.00    0.0
2019/09/06 10:09:55.440   39.849580545  116.516853962 -6674.8223   5   8   3.2886   1.6927   3.9426   0.9680   0.7059  -1.3839   0.00    0.0
2019/09/06 10:09:58.440   39.849368385  116.516818946 -6676.2155   5   8   3.2883   1.6926   3.9422   0.9677   0.7058  -1.3873   0.00    0.0
2019/09/06 10:10:01.440   39.849136737  116.516761364 -6670.0108   5   8   3.2881   1.6925   3.9418   0.9674   0.7057  -1.3906   0.00    0.0
2019/09/06 10:10:04.440   39.849095983  116.516681667 -6705.0369   5   8   3.2879   1.6924   3.9414   0.9671   0.7055  -1.3940   0.00    0.0
2019/09/06 10:10:07.440   39.848629252  116.516654003 -6692.2961   5   8   3.2877   1.6923   3.9410   0.9668   0.7054  -1.3974   0.00    0.0
2019/09/06 10:10:10.440   39.848234974  116.516695144 -6678.3274   5   8   3.2874   1.6922   3.9406   0.9665   0.7052  -1.4007   0.00    0.0
2019/09/06 10:10:13.440   39.847858863  116.516556870 -6680.6383   5   8   3.2872   1.6921   3.9402   0.9661   0.7051  -1.4040   0.00    0.0
2019/09/06 10:10:16.440   39.848180605  116.516543128 -6691.3852   5   8   3.2870   1.6921   3.9398   0.9658   0.7050  -1.4074   0.00    0.0
2019/09/06 10:10:19.440   39.847867062  116.516525374 -6698.6083   5   8   3.2868   1.6920   3.9394   0.9655   0.7048  -1.4107   0.00    0.0
2019/09/06 10:10:23.440   39.847805220  116.516205059 -6675.5293   5   8   3.2865   1.6918   3.9389   0.9651   0.7047  -1.4151   0.00    0.0
2019/09/06 10:10:26.440   39.891732981  116.519928337 -7163.4429   5   9   2.3880   1.6855   3.9325   0.7755   0.7256  -1.2419   0.00    0.0
2019/09/06 10:10:29.440   39.891443386  116.520174681 -7150.8536   5   9   2.3881   1.6854   3.9320   0.7753   0.7257  -1.2437   0.00    0.0
2019/09/06 10:10:32.440   39.891138637  116.520657237 -6998.6767   5   9   2.3881   1.6853   3.9315   0.7751   0.7257  -1.2455   0.00    0.0
2019/09/06 10:10:35.440   39.899124184  116.525447374 -6397.2987   5  10   2.1650   1.6083   3.8766   0.3055   0.4454  -1.4877   0.00    0.0
2019/09/06 10:10:38.440   39.899192865  116.525436050 -6396.3854   5  10   2.1652   1.6082   3.8762   0.3051   0.4462  -1.4888   0.00    0.0
2019/09/06 10:10:41.440   39.899235466  116.525355231 -6386.9565   5  10   2.1654   1.6082   3.8759   0.3047   0.4469  -1.4899   0.00    0.0
2019/09/06 10:10:44.440   39.899196762  116.525676480 -6437.7743   5  10   2.1655   1.6081   3.8756   0.3044   0.4476  -1.4910   0.00    0.0
2019/09/06 10:10:47.440   39.899067222  116.525441877 -6405.4087   5  10   2.1657   1.6080   3.8752   0.3040   0.4483  -1.4921   0.00    0.0
2019/09/06 10:10:50.440   39.899084666  116.525364407 -6411.9372   5  10   2.1658   1.6079   3.8749   0.3036   0.4490  -1.4932   0.00    0.0
2019/09/06 10:10:53.440   39.899099789  116.525501404 -6441.3693   5  10   2.1660   1.6078   3.8745   0.3033   0.4497  -1.4943   0.00    0.0
2019/09/06 10:10:56.440   39.872275905  116.556662413  3080.6339   5   9   3.1618   2.5864   7.1307  -1.4094   2.6543  -3.4412   0.00    0.0
2019/09/06 10:11:00.440   39.872567212  116.556993756  3170.1792   5   8   3.2204   2.8702   7.7282  -1.1086   3.2798  -3.1682   0.00    0.0
2019/09/06 10:11:03.440   39.872414053  116.556853550  3209.5904   5   8   3.2205   2.8705   7.7288  -1.1094   3.2808  -3.1699   0.00    0.0
2019/09/06 10:11:06.440   39.872027997  116.557227047  3249.9384   5   8   3.2206   2.8707   7.7294  -1.1103   3.2817  -3.1716   0.00    0.0
2019/09/06 10:11:09.440   39.871870706  116.557035384  3301.7754   5   8   3.2206   2.8709   7.7301  -1.1111   3.2827  -3.1732   0.00    0.0
2019/09/06 10:11:12.440   39.871845776  116.557106552  3279.8227   5   8   3.2207   2.8712   7.7307  -1.1120   3.2837  -3.1750   0.00    0.0
2019/09/06 10:11:15.440   39.830847765  116.554427470  3526.4228   5   7   4.2170   2.8760   7.7360  -0.9192   3.2832  -3.2291   0.00    0.0
2019/09/06 10:11:18.440   39.830657928  116.554406908  3549.5168   5   7   4.2169   2.8763   7.7367  -0.9204   3.2842  -3.2321   0.00    0.0
2019/09/06 10:11:21.440   39.830633596  116.554314206  3628.0269   5   7   4.2168   2.8765   7.7373  -0.9216   3.2851  -3.2351   0.00    0.0
2019/09/06 10:11:24.440   39.830517944  116.554474799  3687.2539   5   7   4.2167   2.8767   7.7380  -0.9228   3.2860  -3.2381   0.00    0.0
2019/09/06 10:11:27.440   39.830481815  116.554640828  3655.4135   5   7   4.2167   2.8769   7.7387  -0.9240   3.2869  -3.2411   0.00    0.0
2019/09/06 10:11:30.440   39.830353076  116.554567440  3712.5287   5   7   4.2166   2.8772   7.7394  -0.9253   3.2878  -3.2441   0.00    0.0
2019/09/06 10:11:33.440   39.830334577  116.554763787  3676.5523   5   7   4.2165   2.8774   7.7401  -0.9265   3.2887  -3.2471   0.00    0.0
2019/09/06 10:11:36.440   39.854890995  116.533597612 -1476.7539   5   6   5.2073   3.6508   9.6314  -3.3921   5.3773  -5.9513   0.00    0.0
2019/09/06 10:11:40.440   39.854016027  116.533981546 -1228.4833   5   6   5.2062   3.6492   9.6270  -3.3905   5.3744  -5.9498   0.00    0.0
2019/09/06 10:11:43.440   39.853943520  116.533851100 -1224.1309   5   6   5.2055   3.6480   9.6238  -3.3893   5.3723  -5.9488   0.00    0.0
2019/09/06 10:11:46.440   39.854502557  116.533799227 -1310.4024   5   6   5.2048   3.6469   9.6205  -3.3882   5.3703  -5.9478   0.00    0.0
2019/09/06 10:11:49.440   39.854794934  116.533680446 -1334.5613   5   6   5.2042   3.6457   9.6173  -3.3871   5.3682  -5.9468   0.00    0.0
2019/09/06 10:11:52.440   39.854361823  116.533822154 -1298.9765   5   6   5.2034   3.6445   9.6140  -3.3859   5.3661  -5.9458   0.00    0.0
2019/09/06 10:11:55.440   39.854532389  116.533526136 -1346.8051   5   6   5.2027   3.6434   9.6108  -3.3849   5.3640  -5.9447   0.00    0.0
2019/09/06 10:11:58.440   39.854520602  116.533764213 -1329.0952   5   6   5.2020   3.6421   9.6076  -3.3837   5.3619  -5.9437   0.00    0.0
2019/09/06 10:12:01.440   39.854423615  116.533493820 -1332.9203   5   6   5.2013   3.6410   9.6043  -3.3826   5.3599  -5.9427   0.00    0.0
2019/09/06 10:12:04.440   39.854408661  116.533466511 -1314.8866   5   6   5.2005   3.6398   9.6011  -3.3814   5.3578  -5.9416   0.00    0.0
2019/09/06 10:12:07.440   39.838775082  116.528743265  6605.1614   5   5  11.0607   4.7851  42.6977   1.7290  -6.9105 -20.5917   0.00    0.0
2019/09/06 10:12:10.440   39.839376319  116.528478868  6402.0688   5   5  11.0681   4.7826  42.7096   1.7324  -6.9080 -20.6039   0.00    0.0
2019/09/06 10:12:13.440   39.838511117  116.528509190  6603.7076   5   5  11.0742   4.7800  42.7207   1.7356  -6.9056 -20.6144   0.00    0.0
2019/09/06 10:12:16.440   39.839159988  116.528450499  6388.8244   5   5  11.0817   4.7775  42.7327   1.7395  -6.9036 -20.6266   0.00    0.0
2019/09/06 10:12:20.440   39.819730767  116.526651727 17345.3418   5   6   8.4317   4.7454  22.7295  -0.8039  -5.3985 -12.8598   0.00    0.0
2019/09/06 10:12:23.440   39.819480899  116.526588859 17469.6435   5   6   8.4351   4.7429  22.7401  -0.7936  -5.3990 -12.8671   0.00    0.0
2019/09/06 10:12:26.440   39.819439117  116.526732719 17405.0280   5   6   8.4386   4.7405  22.7509  -0.7825  -5.3997 -12.8745   0.00    0.0
2019/09/06 10:12:29.440   39.909593515  116.525044312 -8953.2956   5   7   3.0351   4.0800   7.4997   0.6588  -4.8131  -2.4637   0.00    0.0
2019/09/06 10:12:32.440   39.909700205  116.524852749 -8940.1951   5   7   3.0355   4.0781   7.4983   0.6606  -4.8112  -2.4655   0.00    0.0
2019/09/06 10:12:35.440   39.909790166  116.524905423 -8967.4937   5   7   3.0358   4.0763   7.4970   0.6623  -4.8094  -2.4674   0.00    0.0
2019/09/06 10:12:38.440   39.909815484  116.524621480 -8928.5628   5   7   3.0362   4.0745   7.4956   0.6640  -4.8075  -2.4692   0.00    0.0
2019/09/06 10:12:41.440   39.909883989  116.524876311 -8952.9466   5   7   3.0365   4.0727   7.4943   0.6657  -4.8056  -2.4710   0.00    0.0
2019/09/06 10:12:44.440   39.909660790  116.524993057 -8950.8446   5   7   3.0369   4.0708   7.4930   0.6674  -4.8038  -2.4728   0.00    0.0
2019/09/06 10:12:47.440   39.909652625  116.525155625 -8986.8612   5   7   3.0372   4.0690   7.4917   0.6690  -4.8019  -2.4746   0.00    0.0
2019/09/06 10:12:50.440   39.818732081  116.526376655 17690.9944   5   6   8.4669   4.7210  22.8370  -0.6914  -5.4041 -12.9334   0.00    0.0
2019/09/06 10:12:53.440   39.819022760  116.526375926 17610.3325   5   6   8.4706   4.7186  22.8479  -0.6787  -5.4048 -12.9410   0.00    0.0
2019/09/06 10:12:56.440   39.818579803  116.526504724 17699.2728   5   6   8.4740   4.7162  22.8588  -0.6661  -5.4055 -12.9482   0.00    0.0
2019/09/06 10:13:00.440   39.867374872  116.503792673 11367.5745   5   7   7.2664   4.4373  22.3016   2.5559  -6.0932 -12.0834   0.00    0.0
2019/09/06 10:13:03.440   39.867356146  116.503872203 11389.4510   5   7   7.2686   4.4359  22.3093   2.5577  -6.0945 -12.0879   0.00    0.0
2019/09/06 10:13:06.440   39.867337195  116.503890776 11393.8913   5   7   7.2707   4.4344  22.3170   2.5595  -6.0958 -12.0924   0.00    0.0
2019/09/06 10:13:09.440   39.867428027  116.503849265 11382.7332   5   7   7.2729   4.4329  22.3247   2.5613  -6.0970 -12.0970   0.00    0.0
2019/09/06 10:13:12.440   39.867147245  116.503919506 11495.6977   5   7   7.2749   4.4315  22.3323   2.5630  -6.0983 -12.1014   0.00    0.0
2019/09/06 10:13:15.440   39.924305504  116.507701073 -7527.2245   5   8   2.6102   3.7602   7.3016   1.6802  -4.5210  -2.9578   0.00    0.0
2019/09/06 10:13:18.440   39.924510850  116.507656479 -7540.2501   5   8   2.6104   3.7591   7.3011   1.6801  -4.5201  -2.9584   0.00    0.0
2019/09/06 10:13:21.440   39.924692464  116.507623530 -7514.0271   5   8   2.6107   3.7580   7.3006   1.6799  -4.5191  -2.9589   0.00    0.0
2019/09/06 10:13:24.440   39.924826931  116.507727669 -7531.2502   5   8   2.6110   3.7569   7.3001   1.6798  -4.5182  -2.9595   0.00    0.0
2019/09/06 10:13:27.440   39.924902522  116.507589020 -7492.9269   5   8   2.6112   3.7557   7.2996   1.6796  -4.5172  -2.9600   0.00    0.0
2019/09/06 10:13:30.440   39.925212052  116.507622341 -7485.8196   5   8   2.6115   3.7546   7.2991   1.6795  -4.5163  -2.9606   0.00    0.0
2019/09/06 10:13:33.440   39.916165542  116.501571619 -8024.3490   5   7   2.8005   3.7894   7.3184   1.8295  -4.4839  -2.8676   0.00    0.0
2019/09/06 10:13:37.440   39.877795909  116.530709464 -11799.8609   5   6   3.7019   4.0494   7.6326  -0.3371  -4.8172  -1.7161   0.00    0.0
2019/09/06 10:13:40.440   39.877719607  116.530648715 -11815.4877   5   6   3.7019   4.0475   7.6303  -0.3279  -4.8150  -1.7218   0.00    0.0
2019/09/06 10:13:43.440   39.877593195  116.530760896 -11822.8853   5   6   3.7018   4.0456   7.6281  -0.3186  -4.8128  -1.7275   0.00    0.0
2019/09/06 10:13:46.440   39.877618774  116.530579417 -11787.2662   5   6   3.7018   4.0436   7.6258  -0.3088  -4.8105  -1.7332   0.00    0.0
2019/09/06 10:13:49.440   39.877714636  116.530694577 -11824.6808   5   6   3.7018   4.0418   7.6236  -0.2987  -4.8083  -1.7390   0.00    0.0
2019/09/06 10:13:52.440   39.877462769  116.530691956 -11832.8891   5   6   3.7017   4.0399   7.6213  -0.2886  -4.8060  -1.7445   0.00    0.0
2019/09/06 10:13:55.440   39.877309432  116.530634785 -11830.6994   5   6   3.7017   4.0380   7.6191  -0.2780  -4.8038  -1.7501   0.00    0.0
2019/09/06 10:13:58.440   39.877582665  116.530503392 -11799.3275   5   6   3.7017   4.0361   7.6168  -0.2666  -4.8016  -1.7558   0.00    0.0
2019/09/06 10:14:01.440   39.877351019  116.530598052 -11813.6088   5   6   3.7016   4.0342   7.6146  -0.2552  -4.7993  -1.7613   0.00    0.0
2019/09/06 10:14:04.440   39.877236403  116.530676720 -11836.0993   5   6   3.7016   4.0323   7.6124  -0.2431  -4.7971  -1.7669   0.00    0.0
2019/09/06 10:14:07.440   39.877421555  116.530592038 -11827.1792   5   6   3.7016   4.0304   7.6101  -0.2302  -4.7949  -1.7725   0.00    0.0
2019/09/06 10:14:10.440   39.877562727  116.530550752 -11840.2282   5   6   3.7015   4.0285   7.6079  -0.2165  -4.7927  -1.7780   0.00    0.0
2019/09/06 10:14:14.440   39.877506276  116.530402404 -11835.3108   5   6   3.7015   4.0260   7.6049  -0.1971  -4.7897  -1.7854   0.00    0.0
2019/09/06 10:14:17.440   39.838055278  116.527759337  6108.0897   5   5  11.3622   4.6772  43.2010   1.8793  -6.8232 -21.0895   0.00    0.0
2019/09/06 10:14:20.440   39.816204181  116.526044042 17978.8883   5   6   8.5766   4.6498  23.1691   0.1804  -5.4253 -13.1596   0.00    0.0
2019/09/06 10:14:23.440   39.816342563  116.526068003 17955.4087   5   6   8.5805   4.6475  23.1804   0.2236  -5.4262 -13.1674   0.00    0.0
2019/09/06 10:14:26.440   39.816169632  116.526179683 17940.2596   5   6   8.5842   4.6452  23.1917   0.2598  -5.4271 -13.1750   0.00    0.0
2019/09/06 10:14:29.440   39.816410350  116.525903144 17936.3221   5   6   8.5881   4.6428  23.2030   0.2898  -5.4277 -13.1829   0.00    0.0
2019/09/06 10:14:32.440   39.816210879  116.525937100 18004.2206   5   6   8.5918   4.6405  23.2143   0.3180  -5.4285 -13.1905   0.00    0.0
2019/09/06 10:14:35.440   39.815933556  116.526092893 18077.1762   5   6   8.5955   4.6382  23.2256   0.3443  -5.4295 -13.1981   0.00    0.0
2019/09/06 10:14:38.440   39.815959413  116.526083556 18036.2266   5   6   8.5994   4.6359  23.2370   0.3686  -5.4303 -13.2059   0.00    0.0
2019/09/06 10:14:41.440   39.816018674  116.525901422 18085.3053   5   6   8.6032   4.6336  23.2484   0.3905  -5.4310 -13.2136   0.00    0.0
2019/09/06 10:14:44.440   39.815968958  116.525977186 18126.0070   5   6   8.6070   4.6313  23.2597   0.4122  -5.4319 -13.2214   0.00    0.0
2019/09/06 10:14:47.440   39.815899069  116.525911641 18178.8359   5   6   8.6109   4.6290  23.2711   0.4323  -5.4327 -13.2291   0.00    0.0
2019/09/06 10:14:51.440   39.815579872  116.525951107 18250.3416   5   6   8.6158   4.6259  23.2863   0.4579  -5.4339 -13.2393   0.00    0.0
2019/09/06 10:14:54.440   39.815556469  116.525860420 18283.0547   5   6   8.6197   4.6236  23.2977   0.4760  -5.4346 -13.2471   0.00    0.0
2019/09/06 10:14:57.440   39.815447900  116.525912302 18314.6412   5   6   8.6235   4.6213  23.3092   0.4939  -5.4356 -13.2549   0.00    0.0
2019/09/06 10:15:00.440   39.815075033  116.526084642 18355.6448   5   6   8.6272   4.6190  23.3206   0.5113  -5.4366 -13.2625   0.00    0.0
2019/09/06 10:15:03.440   39.815650298  116.525926179 18178.2164   5   6   8.6314   4.6168  23.3323   0.5281  -5.4374 -13.2707   0.00    0.0
2019/09/06 10:15:06.440   39.815486091  116.525888765 18263.2326   5   6   8.6352   4.6145  23.3437   0.5439  -5.4383 -13.2784   0.00    0.0
2019/09/06 10:15:09.440   39.815145539  116.526005534 18395.3097   5   6   8.6389   4.6122  23.3551   0.5596  -5.4392 -13.2861   0.00    0.0
2019/09/06 10:15:12.440   39.814443715  116.525928304 18589.0708   5   6   8.6425   4.6099  23.3665   0.5739  -5.4399 -13.2935   0.00    0.0
2019/09/06 10:15:15.440   39.814716751  116.525896750 18574.6594   5   6   8.6465   4.6076  23.3781   0.5889  -5.4408 -13.3015   0.00    0.0
2019/09/06 10:15:18.440   39.815451880  116.525883233 18212.3457   5   6   8.6508   4.6054  23.3900   0.6043  -5.4420 -13.3099   0.00    0.0
2019/09/06 10:15:21.440   39.815143815  116.525854407 18272.9589   5   6   8.6546   4.6031  23.4015   0.6182  -5.4429 -13.3176   0.00    0.0
2019/09/06 10:15:24.440   39.815264605  116.525861717 18225.8217   5   6   8.6586   4.6009  23.4132   0.6322  -5.4438 -13.3256   0.00    0.0
2019/09/06 10:15:27.440   39.815164544  116.525785503 18279.3245   5   6   8.6625   4.5986  23.4248   0.6454  -5.4447 -13.3334   0.00    0.0
2019/09/06 10:15:30.440   39.815136403  116.525821796 18285.7829   5   6   8.6664   4.5963  23.4364   0.6588  -5.4457 -13.3413   0.00    0.0
2019/09/06 10:15:34.440   39.815151095  116.525749584 18275.0818   5   6   8.6717   4.5933  23.4519   0.6760  -5.4469 -13.3519   0.00    0.0
2019/09/06 10:15:37.440   39.867093343  116.504939542 10860.4941   5   7   7.3802   4.3627  22.7070   2.6485  -6.1619 -12.3223   0.00    0.0
2019/09/06 10:15:40.440   39.867147900  116.505019247 10800.8818   5   7   7.3825   4.3614  22.7148   2.6503  -6.1633 -12.3269   0.00    0.0
2019/09/06 10:15:43.440   39.867201165  116.504982832 10795.3508   5   7   7.3847   4.3600  22.7226   2.6521  -6.1646 -12.3315   0.00    0.0
2019/09/06 10:15:46.440   39.867235439  116.505022449 10761.5828   5   7   7.3869   4.3586  22.7304   2.6539  -6.1660 -12.3361   0.00    0.0
2019/09/06 10:15:49.440   39.867327090  116.505016180 10750.1062   5   7   7.3892   4.3572  22.7382   2.6556  -6.1673 -12.3408   0.00    0.0
2019/09/06 10:15:52.440   39.867484067  116.504986846 10738.8186   5   7   7.3915   4.3558  22.7459   2.6574  -6.1686 -12.3454   0.00    0.0
2019/09/06 10:15:55.440   39.867462112  116.505101740 10703.6829   5   7   7.3937   4.3545  22.7537   2.6592  -6.1700 -12.3500   0.00    0.0
2019/09/06 10:15:58.440   39.867433930  116.505158107 10689.1995   5   7   7.3959   4.3531  22.7615   2.6609  -6.1714 -12.3546   0.00    0.0
2019/09/06 10:16:01.440   39.867512565  116.505033076 10678.5329   5   7   7.3981   4.3517  22.7693   2.6626  -6.1726 -12.3592   0.00    0.0
2019/09/06 10:16:04.440   39.867498462  116.505083684 10675.5019   5   7   7.4003   4.3503  22.7770   2.6644  -6.1740 -12.3638   0.00    0.0
2019/09/06 10:16:07.440   39.867631365  116.505145969 10617.2370   5   7   7.4026   4.3490  22.7849   2.6662  -6.1754 -12.3685   0.00    0.0
2019/09/06 10:16:10.440   39.867461115  116.505192286 10676.6145   5   7   7.4047   4.3476  22.7926   2.6679  -6.1767 -12.3730   0.00    0.0
2019/09/06 10:16:14.440   39.867418666  116.505164112 10698.0433   5   7   7.4077   4.3458  22.8029   2.6702  -6.1785 -12.3791   0.00    0.0
2019/09/06 10:16:17.440   39.867457053  116.505230098 10669.3589   5   7   7.4099   4.3444  22.8107   2.6720  -6.1798 -12.3837   0.00    0.0
2019/09/06 10:16:20.440   39.867506066  116.505210299 10686.9747   5   7   7.4121   4.3430  22.8184   2.6737  -6.1811 -12.3883   0.00    0.0
2019/09/06 10:16:23.440   39.867687313  116.505210256 10615.8863   5   7   7.4144   4.3417  22.8262   2.6755  -6.1825 -12.3930   0.00    0.0
2019/09/06 10:16:26.440   39.867620943  116.505269359 10616.9998   5   7   7.4166   4.3403  22.8340   2.6773  -6.1839 -12.3976   0.00    0.0
2019/09/06 10:16:29.440   39.867595137  116.505268784 10601.2038   5   7   7.4188   4.3389  22.8418   2.6790  -6.1852 -12.4022   0.00    0.0
2019/09/06 10:16:32.440   39.867621868  116.505349466 10598.9290   5   7   7.4211   4.3376  22.8495   2.6808  -6.1866 -12.4068   0.00    0.0
2019/09/06 10:16:35.440   39.867392135  116.505260600 10660.8638   5   7   7.4232   4.3362  22.8573   2.6824  -6.1878 -12.4113   0.00    0.0
2019/09/06 10:16:38.440   39.867421553  116.505340418 10670.9413   5   7   7.4254   4.3349  22.8650   2.6842  -6.1892 -12.4159   0.00    0.0
2019/09/06 10:16:41.440   39.867455805  116.505425249 10615.9675   5   7   7.4277   4.3335  22.8728   2.6860  -6.1907 -12.4205   0.00    0.0
2019/09/06 10:16:44.440   39.867611392  116.505383687 10575.3169   5   7   7.4300   4.3322  22.8806   2.6877  -6.1920 -12.4252   0.00    0.0
2019/09/06 10:16:47.440   39.867679637  116.505450218 10550.1827   5   7   7.4322   4.3308  22.8884   2.6895  -6.1934 -12.4298   0.00    0.0
2019/09/06 10:16:51.440   39.867550924  116.505460785 10590.1586   5   7   7.4351   4.3290  22.8987   2.6918  -6.1951 -12.4359   0.00    0.0
2019/09/06 10:16:54.440   39.867646516  116.505424900 10563.7229   5   7   7.4374   4.3276  22.9065   2.6935  -6.1965 -12.4406   0.00    0.0
2019/09/06 10:16:57.440   39.867732593  116.505422122 10534.2457   5   7   7.4397   4.3263  22.9143   2.6953  -6.1978 -12.4452   0.00    0.0
2019/09/06 10:17:00.440   39.867714569  116.505525302 10543.2952   5   7   7.4419   4.3249  22.9220   2.6970  -6.1992 -12.4498   0.00    0.0
2019/09/06 10:17:03.440   39.867578718  116.505517170 10536.1569   5   7   7.4441   4.3236  22.9298   2.6987  -6.2006 -12.4543   0.00    0.0
2019/09/06 10:17:06.440   39.867532921  116.505549970 10514.7105   5   7   7.4463   4.3223  22.9376   2.7005  -6.2019 -12.4589   0.00    0.0
2019/09/06 10:17:09.440   39.867590030  116.505584377 10467.9615   5   7   7.4485   4.3209  22.9454   2.7022  -6.2033 -12.4636   0.00    0.0
2019/09/06 10:17:12.440   39.867410692  116.505645257 10434.2507   5   7   7.4507   4.3196  22.9532   2.7040  -6.2047 -12.4681   0.00    0.0
2019/09/06 10:17:15.440   39.867135476  116.505757443 10467.2450   5   7   7.4528   4.3183  22.9609   2.7057  -6.2061 -12.4726   0.00    0.0
2019/09/06 10:17:18.440   39.866970261  116.505798254 10429.9227   5   7   7.4550   4.3169  22.9687   2.7074  -6.2075 -12.4771   0.00    0.0
2019/09/06 10:17:21.440   39.867128333  116.505691736 10389.4532   5   7   7.4573   4.3156  22.9765   2.7091  -6.2088 -12.4818   0.00    0.0
2019/09/06 10:17:24.440   39.866602232  116.505936485 10466.5164   5   7   7.4593   4.3143  22.9842   2.7109  -6.2103 -12.4862   0.00    0.0
2019/09/06 10:17:28.440   39.922851238  116.511119382 -8644.0430   5   8   2.6310   3.6678   7.2552   1.6663  -4.4410  -3.0007   0.00    0.0
2019/09/06 10:17:31.440   39.922567185  116.511355818 -8686.7340   5   8   2.6312   3.6667   7.2546   1.6661  -4.4401  -3.0012   0.00    0.0
2019/09/06 10:17:34.440   39.922784823  116.511046537 -8695.3000   5   8   2.6315   3.6656   7.2540   1.6660  -4.4391  -3.0017   0.00    0.0
2019/09/06 10:17:37.440   39.922953791  116.510573487 -8655.2994   5   8   2.6317   3.6645   7.2534   1.6658  -4.4380  -3.0022   0.00    0.0
2019/09/06 10:17:40.440   39.922616346  116.510307970 -8626.6800   5   8   2.6320   3.6634   7.2527   1.6656  -4.4370  -3.0027   0.00    0.0
2019/09/06 10:17:43.440   39.922537806  116.510505917 -8683.0165   5   8   2.6322   3.6623   7.2521   1.6655  -4.4361  -3.0031   0.00    0.0
2019/09/06 10:17:46.440   39.922131477  116.510513543 -8705.4111   5   8   2.6324   3.6613   7.2515   1.6653  -4.4351  -3.0036   0.00    0.0
2019/09/06 10:17:49.440   39.921736874  116.510644335 -8729.6366   5   8   2.6326   3.6602   7.2509   1.6651  -4.4342  -3.0040   0.00    0.0
2019/09/06 10:17:52.440   39.913440219  116.505411544 -9175.5524   5   7   2.8190   3.6984   7.2614   1.8203  -4.4087  -2.9362   0.00    0.0
2019/09/06 10:17:55.440   39.913140332  116.505553810 -9180.1308   5   7   2.8192   3.6973   7.2607   1.8202  -4.4078  -2.9370   0.00    0.0
2019/09/06 10:17:58.440   39.914505011  116.505289135 -9169.2983   5   7   2.8195   3.6963   7.2600   1.8202  -4.4069  -2.9380   0.00    0.0
2019/09/06 10:18:02.440   39.914332194  116.505246500 -9161.2152   5   7   2.8198   3.6949   7.2590   1.8201  -4.4057  -2.9390   0.00    0.0
2019/09/06 10:18:05.440   39.914470414  116.504984387 -9131.4025   5   7   2.8200   3.6938   7.2582   1.8200  -4.4048  -2.9398   0.00    0.0
2019/09/06 10:18:08.440   39.914454892  116.505055400 -9133.0968   5   7   2.8203   3.6928   7.2575   1.8199  -4.4039  -2.9405   0.00    0.0
2019/09/06 10:18:11.440   39.923404346  116.511201386 -8793.1888   5   8   2.6345   3.6524   7.2462   1.6641  -4.4271  -3.0078   0.00    0.0
2019/09/06 10:18:14.440   39.923414397  116.511310989 -8819.6225   5   8   2.6348   3.6513   7.2456   1.6640  -4.4261  -3.0083   0.00    0.0
2019/09/06 10:18:17.440   39.923431827  116.511183497 -8811.2242   5   8   2.6350   3.6503   7.2449   1.6638  -4.4251  -3.0088   0.00    0.0
2019/09/06 10:18:20.440   39.923431939  116.511342773 -8845.5294   5   8   2.6353   3.6492   7.2443   1.6636  -4.4242  -3.0092   0.00    0.0
2019/09/06 10:18:23.440   39.923490099  116.511331220 -8854.0492   5   8   2.6355   3.6481   7.2436   1.6635  -4.4232  -3.0097   0.00    0.0
2019/09/06 10:18:26.440   39.923449961  116.511357344 -8861.0941   5   8   2.6357   3.6471   7.2430   1.6633  -4.4222  -3.0102   0.00    0.0
2019/09/06 10:18:29.440   39.923501570  116.511378744 -8877.8149   5   8   2.6360   3.6460   7.2423   1.6632  -4.4213  -3.0107   0.00    0.0
2019/09/06 10:18:32.440   39.923504138  116.511360139 -8876.0318   5   8   2.6362   3.6449   7.2417   1.6630  -4.4203  -3.0112   0.00    0.0
2019/09/06 10:18:36.440   39.923530923  116.511412875 -8918.6374   5   8   2.6366   3.6435   7.2408   1.6628  -4.4190  -3.0118   0.00    0.0
2019/09/06 10:18:39.440   39.923489518  116.511460814 -8899.6970   5   8   2.6368   3.6425   7.2401   1.6627  -4.4180  -3.0123   0.00    0.0
2019/09/06 10:18:42.440   39.923543171  116.511558729 -8939.4107   5   8   2.6370   3.6414   7.2395   1.6625  -4.4170  -3.0127   0.00    0.0
2019/09/06 10:18:45.440   39.923749772  116.511655704 -8945.0075   5   8   2.6373   3.6404   7.2388   1.6624  -4.4161  -3.0132   0.00    0.0
2019/09/06 10:18:48.440   39.923440347  116.511783937 -8972.4759   5   8   2.6375   3.6393   7.2382   1.6622  -4.4151  -3.0137   0.00    0.0
2019/09/06 10:18:51.440   39.923435462  116.511796750 -8949.0683   5   8   2.6377   3.6383   7.2375   1.6620  -4.4141  -3.0141   0.00    0.0
2019/09/06 10:18:54.440   39.923508779  116.511749495 -8992.3572   5   8   2.6380   3.6372   7.2369   1.6619  -4.4131  -3.0146   0.00    0.0
2019/09/06 10:18:57.440   39.923531815  116.511658405 -8969.0914   5   8   2.6382   3.6361   7.2362   1.6617  -4.4121  -3.0151   0.00    0.0
2019/09/06 10:19:00.440   39.923466451  116.511558995 -8987.7982   5   8   2.6385   3.6351   7.2355   1.6615  -4.4112  -3.0156   0.00    0.0
2019/09/06 10:19:03.440   39.923512916  116.511645639 -8992.2850   5   8   2.6387   3.6340   7.2349   1.6614  -4.4102  -3.0160   0.00    0.0
2019/09/06 10:19:06.440   39.923427852  116.511804182 -9004.2795   5   8   2.6389   3.6330   7.2342   1.6612  -4.4092  -3.0165   0.00    0.0
2019/09/06 10:19:09.440   39.923503928  116.511835039 -9022.9464   5   8   2.6392   3.6319   7.2335   1.6611  -4.4082  -3.0170   0.00    0.0
2019/09/06 10:19:12.440   39.923375389  116.511867257 -9020.0549   5   8   2.6394   3.6308   7.2328   1.6609  -4.4073  -3.0174   0.00    0.0
2019/09/06 10:19:16.440   39.923625644  116.511908024 -9080.9933   5   8   2.6398   3.6294   7.2320   1.6607  -4.4060  -3.0181   0.00    0.0
2019/09/06 10:19:19.440   39.923622475  116.511934769 -9078.4074   5   8   2.6400   3.6284   7.2313   1.6606  -4.4050  -3.0186   0.00    0.0
2019/09/06 10:19:22.440   39.923634424  116.511974404 -9096.6289   5   8   2.6402   3.6273   7.2306   1.6604  -4.4040  -3.0190   0.00    0.0
2019/09/06 10:19:25.440   39.923513561  116.511982460 -9099.5496   5   8   2.6405   3.6263   7.2299   1.6603  -4.4030  -3.0195   0.00    0.0
2019/09/06 10:19:28.440   39.923516200  116.512046072 -9117.0307   5   8   2.6407   3.6252   7.2292   1.6601  -4.4020  -3.0199   0.00    0.0
2019/09/06 10:19:31.440   39.923512262  116.512055811 -9110.4168   5   8   2.6409   3.6242   7.2286   1.6599  -4.4011  -3.0204   0.00    0.0
2019/09/06 10:19:34.440   39.923481432  116.511976368 -9118.1057   5   8   2.6412   3.6231   7.2279   1.6598  -4.4001  -3.0209   0.00    0.0
2019/09/06 10:19:37.440   39.923559604  116.512123919 -9148.2017   5   8   2.6414   3.6221   7.2272   1.6596  -4.3991  -3.0214   0.00    0.0
2019/09/06 10:19:40.440   39.923702165  116.512265756 -9182.2590   5   8   2.6417   3.6210   7.2265   1.6595  -4.3981  -3.0218   0.00    0.0
2019/09/06 10:19:43.440   39.923713974  116.512265881 -9172.3540   5   8   2.6419   3.6200   7.2258   1.6593  -4.3971  -3.0223   0.00    0.0
2019/09/06 10:19:46.440   39.923672415  116.512389229 -9210.9974   5   8   2.6421   3.6190   7.2251   1.6592  -4.3962  -3.0228   0.00    0.0
2019/09/06 10:19:49.440   39.923818780  116.512278533 -9178.8928   5   8   2.6424   3.6179   7.2244   1.6590  -4.3952  -3.0232   0.00    0.0
2019/09/06 10:19:53.440   39.924053161  116.512490781 -9195.8376   5   8   2.6427   3.6165   7.2235   1.6589  -4.3939  -3.0239   0.00    0.0
2019/09/06 10:19:56.440   39.924148656  116.512698704 -9204.3208   5   8   2.6430   3.6155   7.2228   1.6587  -4.3929  -3.0244   0.00    0.0
2019/09/06 10:19:59.440   39.924173679  116.512889814 -9207.5768   5   8   2.6432   3.6144   7.2221   1.6586  -4.3919  -3.0248   0.00    0.0
2019/09/06 10:20:02.440   39.924216671  116.512755009 -9202.1304   5   8   2.6434   3.6134   7.2214   1.6584  -4.3909  -3.0253   0.00    0.0
2019/09/06 10:20:05.440   39.924449422  116.512526855 -9212.6098   5   8   2.6437   3.6123   7.2207   1.6583  -4.3899  -3.0258   0.00    0.0
2019/09/06 10:20:08.440   39.924614766  116.512360691 -9224.0243   5   8   2.6439   3.6112   7.2200   1.6582  -4.3889  -3.0263   0.00    0.0
2019/09/06 10:20:11.440   39.914655226  116.505734546 -9717.6258   5   7   2.8292   3.6515   7.2268   1.8167  -4.3673  -2.9718   0.00    0.0
2019/09/06 10:20:14.440   39.914868085  116.505804537 -9783.0289   5   7   2.8295   3.6505   7.2260   1.8167  -4.3665  -2.9726   0.00    0.0
2019/09/06 10:20:17.440   39.864911940  116.506785868 10827.3280   5   6  12.0172   4.2393  44.4581   2.8148  -6.2993 -22.6860   0.00    0.0
2019/09/06 10:20:20.440   39.864925220  116.506271145 10911.0580   5   6  12.0224   4.2380  44.4739   2.8177  -6.3030 -22.6955   0.00    0.0
2019/09/06 10:20:23.440   39.864784830  116.505619728 10852.6605   5   6  12.0276   4.2366  44.4901   2.8204  -6.3064 -22.7050   0.00    0.0
2019/09/06 10:20:27.440   39.866507021  116.506983683 10242.5363   5   6  12.0364   4.2352  44.5128   2.8286  -6.3183 -22.7200   0.00    0.0
2019/09/06 10:20:30.440   39.866200084  116.506850540 10496.9459   5   6  12.0412   4.2339  44.5280   2.8320  -6.3229 -22.7289   0.00    0.0
2019/09/06 10:20:33.440   39.868760996  116.506150138  9333.3406   5   7   7.6026   4.2327  23.4715   2.8183  -6.2957 -12.7776   0.00    0.0
2019/09/06 10:20:36.440   39.807719624  116.524270517 19634.8558   5   6   9.1029   4.3813  24.7067   1.4947  -5.5724 -14.1959   0.00    0.0
2019/09/06 10:20:39.440   39.807928367  116.524288348 19574.9373   5   6   9.1078   4.3794  24.7201   1.5010  -5.5740 -14.2049   0.00    0.0
2019/09/06 10:20:42.440   39.807870110  116.524224255 19578.9480   5   6   9.1124   4.3774  24.7334   1.5069  -5.5755 -14.2139   0.00    0.0
2019/09/06 10:20:45.440   39.807539018  116.524526501 19733.4195   5   6   9.1170   4.3755  24.7466   1.5132  -5.5773 -14.2226   0.00    0.0
2019/09/06 10:20:48.440   39.807230457  116.524736222 19791.8003   5   6   9.1216   4.3735  24.7600   1.5194  -5.5791 -14.2314   0.00    0.0
2019/09/06 10:20:51.440   39.806853300  116.524137600 19915.8638   5   6   9.1261   4.3715  24.7733   1.5245  -5.5800 -14.2402   0.00    0.0
2019/09/06 10:20:54.440   39.908267142  116.526714904 -10451.0229   5   7   3.0940   3.7955   7.2823   0.8906  -4.5152  -2.7456   0.00    0.0
2019/09/06 10:20:57.440   39.908096940  116.527138219 -10442.8836   5   7   3.0944   3.7940   7.2810   0.8917  -4.5136  -2.7471   0.00    0.0
2019/09/06 10:21:00.440   39.876348643  116.528462139 -12096.5579   5   6   3.7049   3.7930   7.3359   0.8458  -4.5158  -2.3870   0.00    0.0
2019/09/06 10:21:04.440   39.876311187  116.528885793 -12129.6935   5   6   3.7050   3.7909   7.3335   0.8499  -4.5133  -2.3919   0.00    0.0
2019/09/06 10:21:07.440   39.875983186  116.528166998 -12072.8633   5   6   3.7051   3.7893   7.3318   0.8528  -4.5114  -2.3955   0.00    0.0
2019/09/06 10:21:10.440   39.975044293  116.523346247 -13266.9320   5   5  22.2848   3.8872   7.6815  -4.2957  -4.2808  -7.5066   0.00    0.0
2019/09/06 10:21:13.440   39.975975095  116.523540984 -13280.1670   5   5  22.2921   3.8833   7.6882  -4.2680  -4.2790  -7.5496   0.00    0.0
2019/09/06 10:21:16.440   39.975357813  116.524219627 -13343.3243   5   5  22.2994   3.8794   7.6951  -4.2400  -4.2773  -7.5930   0.00    0.0
2019/09/06 10:21:19.440   39.972606164  116.524044703 -13326.9924   5   5  22.3066   3.8756   7.7024  -4.2129  -4.2754  -7.6368   0.00    0.0
2019/09/06 10:21:22.440   39.973690340  116.523775915 -13338.1163   5   5  22.3139   3.8717   7.7094  -4.1849  -4.2737  -7.6791   0.00    0.0
2019/09/06 10:21:25.440   39.973693055  116.524071159 -13349.4046   5   5  22.3211   3.8679   7.7165  -4.1565  -4.2722  -7.7216   0.00    0.0
2019/09/06 10:21:28.440   39.973288639  116.524253975 -13370.4572   5   5  22.3284   3.8642   7.7239  -4.1281  -4.2707  -7.7639   0.00    0.0
2019/09/06 10:21:31.440   39.973641720  116.524204717 -13385.6343   5   5  22.3357   3.8604   7.7312  -4.0994  -4.2693  -7.8058   0.00    0.0
2019/09/06 10:21:34.440   39.969841713  116.524451871 -13325.2022   5   5  22.3429   3.8567   7.7390  -4.0713  -4.2677  -7.8489   0.00    0.0
2019/09/06 10:21:37.440   39.973307763  116.524436941 -13385.4659   5   5  22.3502   3.8530   7.7463  -4.0415  -4.2666  -7.8894   0.00    0.0
2019/09/06 10:21:40.440   39.972594957  116.524520123 -13393.5788   5   5  22.3574   3.8494   7.7540  -4.0124  -4.2654  -7.9310   0.00    0.0
2019/09/06 10:21:44.440   39.972546837  116.524035401 -13399.0605   5   5  22.3671   3.8445   7.7644  -3.9735  -4.2637  -7.9860   0.00    0.0
2019/09/06 10:21:47.440   39.973265168  116.523994880 -13412.9251   5   5  22.3743   3.8409   7.7722  -3.9436  -4.2627  -8.0267   0.00    0.0
2019/09/06 10:21:50.440   39.972486258  116.523822849 -13413.1699   5   5  22.3816   3.8373   7.7803  -3.9139  -4.2617  -8.0677   0.00    0.0
2019/09/06 10:21:53.440   39.971976135  116.523929098 -13402.5101   5   5  22.3888   3.8338   7.7884  -3.8837  -4.2607  -8.1084   0.00    0.0
2019/09/06 10:21:56.440   39.972604010  116.523818947 -13411.4298   5   5  22.3960   3.8303   7.7965  -3.8532  -4.2599  -8.1486   0.00    0.0
2019/09/06 10:21:59.440   39.972731525  116.524396568 -13486.0079   5   5  22.4033   3.8269   7.8048  -3.8219  -4.2593  -8.1888   0.00    0.0
2019/09/06 10:22:02.440   39.972466496  116.524384021 -13509.8520   5   5  22.4106   3.8234   7.8132  -3.7910  -4.2586  -8.2290   0.00    0.0
2019/09/06 10:22:05.440   39.973465932  116.524219135 -13545.9466   5   5  22.4178   3.8200   7.8215  -3.7596  -4.2580  -8.2685   0.00    0.0
2019/09/06 10:22:08.440   39.975414866  116.524370600 -13624.4313   5   5  22.4251   3.8166   7.8299  -3.7275  -4.2575  -8.3076   0.00    0.0
2019/09/06 10:22:11.440   39.973683147  116.524272680 -13602.4114   5   5  22.4323   3.8133   7.8387  -3.6962  -4.2570  -8.3476   0.00    0.0
2019/09/06 10:22:14.440   39.972971998  116.524425761 -13649.5506   5   5  22.4396   3.8100   7.8476  -3.6642  -4.2566  -8.3872   0.00    0.0
2019/09/06 10:22:24.440   39.835064967  116.525656326  5476.9687   5   5  12.5638   4.3275  45.1219   2.4048  -6.6617 -22.9762   0.00    0.0
2019/09/06 10:22:27.440   39.833519375  116.524842360  6212.0987   5   5  12.5699   4.3254  45.1319   2.4052  -6.6581 -22.9858   0.00    0.0
2019/09/06 10:22:30.440   39.805391407  116.523672225 20201.2198   5   6   9.2863   4.3087  25.2255   1.7122  -5.6353 -14.5424   0.00    0.0
2019/09/06 10:22:33.440   39.804630008  116.523585028 20295.2638   5   6   9.2909   4.3068  25.2394   1.7173  -5.6369 -14.5514   0.00    0.0
2019/09/06 10:22:36.440   39.804072554  116.523029808 20481.7561   5   6   9.2957   4.3049  25.2533   1.7219  -5.6380 -14.5605   0.00    0.0
2019/09/06 10:22:39.440   39.804298122  116.524068062 20259.0833   5   6   9.3008   4.3032  25.2676   1.7287  -5.6411 -14.5701   0.00    0.0
2019/09/06 10:22:42.440   39.804682346  116.523963657 20160.4766   5   6   9.3061   4.3014  25.2818   1.7342  -5.6429 -14.5797   0.00    0.0
2019/09/06 10:22:45.440   39.867765534  116.508353873  8893.2385   5   7   7.7022   4.1790  23.8061   2.8912  -6.3563 -12.9782   0.00    0.0
2019/09/06 10:22:48.440   39.867209994  116.508157389  9004.2955   5   7   7.7042   4.1777  23.8135   2.8926  -6.3574 -12.9825   0.00    0.0
2019/09/06 10:22:51.440   39.922621432  116.514991959 -9935.4131   5   8   2.6564   3.5553   7.1797   1.6496  -4.3349  -3.0500   0.00    0.0
2019/09/06 10:22:54.440   39.922223703  116.515046225 -9969.8848   5   8   2.6566   3.5543   7.1790   1.6494  -4.3339  -3.0504   0.00    0.0
2019/09/06 10:22:57.440   39.921744158  116.514002356 -9878.0059   5   8   2.6568   3.5532   7.1782   1.6491  -4.3328  -3.0508   0.00    0.0
2019/09/06 10:23:01.440   39.920001778  116.514148782 -9421.7011   5   8   2.6570   3.5518   7.1769   1.6487  -4.3313  -3.0510   0.00    0.0
2019/09/06 10:23:04.440   39.919922844  116.515375003 -9478.6327   5   8   2.6572   3.5509   7.1761   1.6486  -4.3304  -3.0514   0.00    0.0
2019/09/06 10:23:07.440   39.905925112  116.527974082 -10338.1744   5   7   3.1094   3.7279   7.2272   0.9383  -4.4420  -2.8122   0.00    0.0
2019/09/06 10:23:10.440   39.906124330  116.528225951 -10351.5552   5   7   3.1097   3.7264   7.2259   0.9394  -4.4404  -2.8137   0.00    0.0
2019/09/06 10:23:13.440   39.906257616  116.528260140 -10351.7667   5   7   3.1101   3.7249   7.2247   0.9405  -4.4388  -2.8152   0.00    0.0
2019/09/06 10:23:16.440   39.906296935  116.528744659 -10419.5339   5   7   3.1104   3.7235   7.2235   0.9416  -4.4372  -2.8167   0.00    0.0
2019/09/06 10:23:19.440   39.906405414  116.528034031 -10364.7149   5   7   3.1108   3.7219   7.2223   0.9426  -4.4355  -2.8182   0.00    0.0
2019/09/06 10:23:22.440   39.908096298  116.528385766 -10952.1180   5   7   3.1113   3.7205   7.2213   0.9441  -4.4341  -2.8201   0.00    0.0
2019/09/06 10:23:25.440   39.907950150  116.528609798 -10948.8387   5   7   3.1116   3.7190   7.2201   0.9451  -4.4325  -2.8215   0.00    0.0
2019/09/06 10:23:28.440   39.907550490  116.528208326 -10901.8596   5   7   3.1119   3.7175   7.2188   0.9460  -4.4308  -2.8229   0.00    0.0
2019/09/06 10:23:31.440   39.907774694  116.528690777 -10986.2339   5   7   3.1123   3.7161   7.2176   0.9471  -4.4292  -2.8244   0.00    0.0
2019/09/06 10:23:34.440   39.907642137  116.528670187 -11007.0940   5   7   3.1126   3.7146   7.2164   0.9481  -4.4276  -2.8259   0.00    0.0
2019/09/06 10:23:38.440   39.907760944  116.528739162 -11030.5852   5   7   3.1131   3.7126   7.2148   0.9495  -4.4255  -2.8278   0.00    0.0
2019/09/06 10:23:41.440   39.907656923  116.528546625 -11019.9138   5   7   3.1134   3.7111   7.2136   0.9505  -4.4238  -2.8293   0.00    0.0
2019/09/06 10:23:44.440   39.907554259  116.528391032 -10942.9294   5   7   3.1138   3.7096   7.2123   0.9515  -4.4222  -2.8307   0.00    0.0
2019/09/06 10:23:47.440   39.907550742  116.528480277 -10962.1731   5   7   3.1141   3.7081   7.2111   0.9525  -4.4206  -2.8322   0.00    0.0
2019/09/06 10:23:50.440   39.907608362  116.528428049 -10968.3355   5   7   3.1145   3.7067   7.2099   0.9536  -4.4190  -2.8337   0.00    0.0
2019/09/06 10:23:53.440   39.875149644  116.528100584 -12229.2427   5   6   3.7107   3.7057   7.2392   1.0020  -4.4137  -2.5864   0.00    0.0
2019/09/06 10:23:56.440   39.875095239  116.528053025 -12232.8748   5   6   3.7108   3.7043   7.2376   1.0044  -4.4120  -2.5897   0.00    0.0
2019/09/06 10:23:59.440   39.874890026  116.528155926 -12257.4312   5   6   3.7109   3.7028   7.2360   1.0068  -4.4104  -2.5929   0.00    0.0
2019/09/06 10:24:02.440   39.874847061  116.527565428 -12160.6973   5   6   3.7110   3.7013   7.2344   1.0091  -4.4086  -2.5961   0.00    0.0
2019/09/06 10:24:05.440   39.874720905  116.527586662 -12160.6550   5   6   3.7111   3.6998   7.2328   1.0115  -4.4069  -2.5993   0.00    0.0
2019/09/06 10:24:08.440   39.874572669  116.527825315 -12196.2306   5   6   3.7113   3.6984   7.2313   1.0139  -4.4052  -2.6025   0.00    0.0
2019/09/06 10:24:12.440   39.874401102  116.527694282 -12178.1264   5   6   3.7114   3.6965   7.2292   1.0170  -4.4030  -2.6068   0.00    0.0
2019/09/06 10:24:15.440   39.874251413  116.527934482 -12216.1015   5   6   3.7115   3.6951   7.2276   1.0194  -4.4013  -2.6100   0.00    0.0
2019/09/06 10:24:18.440   39.830870810  116.525050954  5872.0518   5   5  12.8570   4.2571  45.5744   2.5225  -6.6586 -23.4181   0.00    0.0
2019/09/06 10:24:24.440   39.831365359  116.524865464  5970.1635   5   5  12.8732   4.2534  45.5978   2.5285  -6.6584 -23.4419   0.00    0.0
2019/09/06 10:24:27.440   39.831630134  116.525036851  5862.9285   5   5  12.8813   4.2517  45.6100   2.5322  -6.6592 -23.4540   0.00    0.0
2019/09/06 10:24:30.440   39.874872713  116.527401751 -12198.5320   5   6   3.7122   3.6878   7.2198   1.0312  -4.3929  -2.6261   0.00    0.0
2019/09/06 10:24:33.440   39.874672670  116.527688823 -12218.6338   5   6   3.7123   3.6864   7.2183   1.0335  -4.3913  -2.6292   0.00    0.0
2019/09/06 10:24:36.440   39.874729979  116.527497761 -12183.8185   5   6   3.7125   3.6850   7.2167   1.0359  -4.3896  -2.6324   0.00    0.0
2019/09/06 10:24:39.440   39.874756132  116.527327482 -12156.0050   5   6   3.7126   3.6835   7.2152   1.0382  -4.3879  -2.6356   0.00    0.0
2019/09/06 10:24:42.440   39.874579514  116.527592278 -12184.8222   5   6   3.7127   3.6821   7.2136   1.0404  -4.3863  -2.6387   0.00    0.0
2019/09/06 10:24:45.440   39.874794691  116.527803527 -12212.0198   5   6   3.7129   3.6807   7.2121   1.0428  -4.3846  -2.6419   0.00    0.0
2019/09/06 10:24:49.440   39.874703954  116.527635160 -12197.6235   5   6   3.7130   3.6788   7.2100   1.0458  -4.3824  -2.6460   0.00    0.0
2019/09/06 10:24:52.440   39.874559245  116.527325051 -12169.2990   5   6   3.7132   3.6774   7.2085   1.0481  -4.3807  -2.6492   0.00    0.0
2019/09/06 10:24:55.440   39.906385992  116.529019583 -11184.6595   5   7   3.1219   3.6751   7.1836   0.9750  -4.3843  -2.8649   0.00    0.0
2019/09/06 10:24:58.440   39.799658912  116.523271504 21099.5605   5   6   9.5413   4.2203  25.9394   1.9657  -5.7299 -15.0164   0.00    0.0
2019/09/06 10:25:01.440   39.799601789  116.523165781 21132.5847   5   6   9.5467   4.2186  25.9544   1.9705  -5.7319 -15.0264   0.00    0.0
2019/09/06 10:25:04.440   39.906177145  116.529248389 -11333.2161   5   6   3.1887   3.7228   7.5724   0.7462  -4.5468  -2.5851   0.00    0.0
2019/09/06 10:25:07.440   39.907776415  116.518841198 -9635.3344   5   5   3.2414   4.6436   9.2562  -1.0269  -5.9538  -1.8977   0.00    0.0
2019/09/06 10:25:10.440   39.907807614  116.518957568 -9659.4895   5   5   3.2418   4.6414   9.2535  -1.0261  -5.9511  -1.8998   0.00    0.0
2019/09/06 10:25:13.440   39.907863260  116.519547629 -9721.2223   5   5   3.2423   4.6393   9.2507  -1.0252  -5.9485  -1.9018   0.00    0.0
2019/09/06 10:25:16.440   39.907736493  116.518827155 -9650.5763   5   5   3.2427   4.6370   9.2479  -1.0244  -5.9457  -1.9038   0.00    0.0
2019/09/06 10:25:19.440   39.906178001  116.529599120 -11391.8815   5   6   3.1905   3.7153   7.5644   0.7536  -4.5380  -2.5936   0.00    0.0
2019/09/06 10:25:22.440   39.872991899  116.529248664 -12836.0890   5   5   3.8167   3.7140   7.6067   0.7814  -4.5342  -2.2392   0.00    0.0
2019/09/06 10:25:25.440   39.872283003  116.528901377 -12780.9991   5   5   3.8167   3.7125   7.6046   0.7847  -4.5322  -2.2432   0.00    0.0
2019/09/06 10:25:29.440   39.873958352  116.527153569 -12227.2802   5   6   3.7149   3.6600   7.1899   1.0755  -4.3605  -2.6873   0.00    0.0
2019/09/06 10:25:32.440   39.873837709  116.526832602 -12177.3942   5   6   3.7150   3.6586   7.1883   1.0776  -4.3589  -2.6903   0.00    0.0
2019/09/06 10:25:35.440   39.873667101  116.526801931 -12239.2901   5   6   3.7151   3.6572   7.1869   1.0798  -4.3573  -2.6934   0.00    0.0
2019/09/06 10:25:38.440   39.873306114  116.526566556 -12206.3457   5   6   3.7153   3.6558   7.1854   1.0819  -4.3556  -2.6964   0.00    0.0
2019/09/06 10:25:41.440   39.873231250  116.526533861 -12218.7221   5   6   3.7154   3.6544   7.1839   1.0840  -4.3540  -2.6994   0.00    0.0
2019/09/06 10:25:44.440   39.873203745  116.526322094 -12231.1923   5   6   3.7156   3.6530   7.1824   1.0862  -4.3524  -2.7024   0.00    0.0
2019/09/06 10:25:47.440   39.873009448  116.525886763 -12211.2588   5   6   3.7157   3.6516   7.1810   1.0883  -4.3507  -2.7054   0.00    0.0
2019/09/06 10:25:50.440   39.872758151  116.525914530 -12201.4892   5   6   3.7158   3.6502   7.1795   1.0904  -4.3491  -2.7084   0.00    0.0
2019/09/06 10:25:53.440   39.872693961  116.525843418 -12230.8245   5   6   3.7160   3.6488   7.1780   1.0925  -4.3475  -2.7114   0.00    0.0
2019/09/06 10:25:56.440   39.872664805  116.525711125 -12279.4630   5   6   3.7161   3.6474   7.1766   1.0946  -4.3459  -2.7145   0.00    0.0
2019/09/06 10:25:59.440   39.904018987  116.527857093 -11414.7639   5   7   3.1292   3.6444   7.1580   0.9951  -4.3506  -2.8948   0.00    0.0
2019/09/06 10:26:02.440   39.904070114  116.527529358 -11426.5994   5   7   3.1296   3.6429   7.1568   0.9960  -4.3490  -2.8963   0.00    0.0
2019/09/06 10:26:05.440   39.903976096  116.527372327 -11425.6949   5   7   3.1299   3.6415   7.1556   0.9969  -4.3474  -2.8976   0.00    0.0
2019/09/06 10:26:08.440   39.903889656  116.527330695 -11411.3542   5   7   3.1302   3.6401   7.1544   0.9978  -4.3458  -2.8990   0.00    0.0
2019/09/06 10:26:12.440   39.903915407  116.527204482 -11440.1002   5   7   3.1307   3.6382   7.1528   0.9991  -4.3437  -2.9009   0.00    0.0
2019/09/06 10:26:15.440   39.903751385  116.527057991 -11442.0209   5   7   3.1310   3.6368   7.1516   1.0000  -4.3421  -2.9023   0.00    0.0
2019/09/06 10:26:18.440   39.903540761  116.526957421 -11416.1806   5   7   3.1314   3.6353   7.1504   1.0009  -4.3405  -2.9037   0.00    0.0
2019/09/06 10:26:21.440   39.903827028  116.526843595 -11448.6781   5   7   3.1317   3.6339   7.1493   1.0019  -4.3390  -2.9051   0.00    0.0
2019/09/06 10:26:24.440   39.903818129  116.526589009 -11480.7891   5   7   3.1321   3.6325   7.1481   1.0028  -4.3374  -2.9065   0.00    0.0
2019/09/06 10:26:27.440   39.903897350  116.525974922 -11454.2702   5   7   3.1324   3.6310   7.1469   1.0037  -4.3358  -2.9079   0.00    0.0
2019/09/06 10:26:30.440   39.903856701  116.525711373 -11489.3185   5   7   3.1328   3.6296   7.1457   1.0046  -4.3342  -2.9093   0.00    0.0
2019/09/06 10:26:33.440   39.903760667  116.525340123 -11505.4658   5   7   3.1331   3.6282   7.1445   1.0055  -4.3326  -2.9107   0.00    0.0
2019/09/06 10:26:36.440   39.903995917  116.524885153 -11552.7528   5   7   3.1335   3.6267   7.1433   1.0065  -4.3310  -2.9122   0.00    0.0
2019/09/06 10:26:39.440   39.904043379  116.524340843 -11557.4504   5   7   3.1338   3.6253   7.1422   1.0074  -4.3294  -2.9136   0.00    0.0
2019/09/06 10:26:42.440   39.904193702  116.524217805 -11606.5096   5   7   3.1342   3.6239   7.1410   1.0084  -4.3279  -2.9150   0.00    0.0
2019/09/06 10:26:45.440   39.904253457  116.523982521 -11651.0229   5   7   3.1345   3.6225   7.1398   1.0093  -4.3263  -2.9164   0.00    0.0
2019/09/06 10:26:49.440   39.903975316  116.523949222 -11588.8176   5   7   3.1350   3.6206   7.1382   1.0105  -4.3242  -2.9182   0.00    0.0
2019/09/06 10:26:52.440   39.903805284  116.523326422 -11573.4474   5   7   3.1353   3.6191   7.1370   1.0113  -4.3226  -2.9196   0.00    0.0
2019/09/06 10:26:55.440   39.903956468  116.523111287 -11557.9619   5   7   3.1357   3.6177   7.1358   1.0122  -4.3210  -2.9210   0.00    0.0
2019/09/06 10:26:58.440   39.903819724  116.523000959 -11545.2812   5   7   3.1360   3.6163   7.1346   1.0131  -4.3195  -2.9223   0.00    0.0
2019/09/06 10:27:01.440   39.903848729  116.522514728 -11532.5994   5   7   3.1363   3.6149   7.1334   1.0140  -4.3179  -2.9237   0.00    0.0
2019/09/06 10:27:04.440   39.903926651  116.522371324 -11508.2533   5   7   3.1367   3.6135   7.1322   1.0149  -4.3163  -2.9251   0.00    0.0
2019/09/06 10:27:07.440   39.904228156  116.522094875 -11530.0703   5   7   3.1370   3.6120   7.1311   1.0159  -4.3147  -2.9266   0.00    0.0
2019/09/06 10:27:10.440   39.904729124  116.522643668 -11585.6356   5   7   3.1374   3.6107   7.1299   1.0170  -4.3132  -2.9280   0.00    0.0
2019/09/06 10:27:13.440   39.904859114  116.522392410 -11590.5003   5   7   3.1378   3.6093   7.1287   1.0179  -4.3117  -2.9294   0.00    0.0
2019/09/06 10:27:16.440   39.905110041  116.522611840 -11634.1045   5   7   3.1381   3.6079   7.1275   1.0189  -4.3102  -2.9308   0.00    0.0
2019/09/06 10:27:19.440   39.905271067  116.522262022 -11622.2537   5   7   3.1385   3.6065   7.1263   1.0198  -4.3086  -2.9322   0.00    0.0
2019/09/06 10:27:22.440   39.905368858  116.522268527 -11624.1037   5   7   3.1389   3.6051   7.1251   1.0207  -4.3070  -2.9336   0.00    0.0
2019/09/06 10:27:26.440   39.872279253  116.518983569 -12311.7641   5   6   3.7209   3.6063   7.1338   1.1556  -4.2983  -2.8026   0.00    0.0
2019/09/06 10:27:29.440   39.870911002  116.521521341 -12963.6169   5   5   3.8142   3.7638   7.7001   0.6594  -4.6477  -2.3323   0.00    0.0
2019/09/06 10:27:32.440   39.870811778  116.521699052 -12957.8219   5   5   3.8143   3.7622   7.6979   0.6637  -4.6456  -2.3363   0.00    0.0
2019/09/06 10:27:35.440   39.968278627  116.520747558 -15011.9336   5   4  26.5337   3.7609   9.2318  -0.5456  -4.6276 -11.8096   0.00    0.0
2019/09/06 10:27:38.440   39.966598066  116.520509255 -14952.6832   5   4  26.5411   3.7593   9.2480   0.1438  -4.6321 -11.8480   0.00    0.0
2019/09/06 10:27:41.440   39.968430093  116.520773822 -15040.2008   5   5  23.2216   3.6337   9.2619   3.5596  -4.6181 -11.9835   0.00    0.0
2019/09/06 10:27:44.440   39.967313800  116.520642718 -14993.4031   5   5  23.2286   3.6338   9.2785   3.5931  -4.6247 -12.0122   0.00    0.0
2019/09/06 10:27:47.440   39.872288115  116.517668980 -12241.1982   5   6   3.7221   3.5970   7.1242   1.1692  -4.2875  -2.8225   0.00    0.0
2019/09/06 10:27:50.440   39.872633006  116.518152895 -12350.2465   5   6   3.7223   3.5957   7.1229   1.1712  -4.2861  -2.8254   0.00    0.0
2019/09/06 10:27:53.440   39.872705929  116.517966902 -12375.7439   5   6   3.7225   3.5944   7.1215   1.1731  -4.2846  -2.8282   0.00    0.0
2019/09/06 10:27:56.440   39.872462363  116.518116463 -12369.2937   5   6   3.7227   3.5931   7.1201   1.1750  -4.2831  -2.8310   0.00    0.0
2019/09/06 10:27:59.440   39.910627236  116.501744605 -11307.4178   5   7   2.8629   3.5033   7.0927   1.8080  -4.2245  -3.0811   0.00    0.0
2019/09/06 10:28:03.440   39.911260715  116.501416593 -11255.0783   5   7   2.8633   3.5020   7.0914   1.8080  -4.2232  -3.0820   0.00    0.0
2019/09/06 10:28:06.440   39.911491437  116.501236100 -11235.9599   5   7   2.8635   3.5011   7.0904   1.8079  -4.2223  -3.0827   0.00    0.0
2019/09/06 10:28:09.440   39.911814311  116.501319014 -11269.8296   5   7   2.8637   3.5002   7.0895   1.8080  -4.2213  -3.0834   0.00    0.0
2019/09/06 10:28:12.440   39.911992044  116.501053320 -11259.2027   5   7   2.8640   3.4993   7.0885   1.8079  -4.2204  -3.0841   0.00    0.0
2019/09/06 10:28:15.440   39.912465104  116.501052965 -11269.0726   5   7   2.8642   3.4984   7.0876   1.8079  -4.2195  -3.0848   0.00    0.0
2019/09/06 10:28:18.440   39.912699796  116.500901001 -11261.1470   5   7   2.8644   3.4975   7.0866   1.8079  -4.2185  -3.0855   0.00    0.0
2019/09/06 10:28:21.440   39.872967089  116.517696121 -12324.7304   5   6   3.7242   3.5822   7.1089   1.1908  -4.2705  -2.8543   0.00    0.0
2019/09/06 10:28:24.440   39.872792596  116.517693788 -12309.7594   5   6   3.7244   3.5809   7.1076   1.1927  -4.2690  -2.8571   0.00    0.0
2019/09/06 10:28:27.440   39.872689366  116.517642084 -12302.9676   5   6   3.7245   3.5796   7.1062   1.1945  -4.2675  -2.8598   0.00    0.0
2019/09/06 10:28:30.440   39.872739733  116.517723317 -12319.5277   5   6   3.7247   3.5784   7.1049   1.1964  -4.2661  -2.8626   0.00    0.0
2019/09/06 10:28:33.440   39.872780925  116.517731655 -12323.7767   5   6   3.7249   3.5771   7.1036   1.1983  -4.2646  -2.8653   0.00    0.0
2019/09/06 10:28:36.440   39.872549440  116.517606974 -12320.9377   5   6   3.7251   3.5758   7.1023   1.2001  -4.2631  -2.8680   0.00    0.0
2019/09/06 10:28:40.440   39.872671368  116.517891260 -12350.1996   5   6   3.7253   3.5741   7.1005   1.2026  -4.2611  -2.8717   0.00    0.0
